$GPVTG,139.7,T,,M,010.3,N,019.1,K*67
$GPGGA,050306,4259.8839,N,07130.3922,W,0,00,99.9,0010,M,,M,000,0000*66
$GPGGA,121057.01,5817.68,N,1558.63,W,0,00,99.9,0010,M,,M,000,0000*7F
$GPGGA,064640.67,4726.68,N,11446.51,W,0,00,99.9,0010,M,,M,000,0000*4D
$GPGLL,4259.8839,N,07130.3922,W,050306,V*20
$GPRMC,050306,V,4259.8839,N,07130.3922,W,010.3,139.7,291003,,*10
$GPZDA,050306,29,10,2003,,*43
$GPGSA,A,1,,,,,,,,,,,,,99.9,99.9,99.9*09
$PSNY,0,00,05,500,06,06,06,06*14
$GPGGA,001430.003,3907.3885,N,12102.4767,W,1,05,02.1,00545.6,M,-26.0,M,,*5F
$GPGGA,022044.03,6637.04,N,8113.88,W,1,05,02.1,00545.6,M,-26.0,M,,*5B
$GPGSA,A,3,15,18,14,,,31,,,23,,,,04.5,02.1,04.0*0F
$GPGSV,3,1,10,15,48,123,35,18,36,064,36,14,77,186,39,03,36,239,29*7A
$GPGSV,3,2,10,09,08,059,,31,35,276,35,17,10,125,,11,08,306,*79
$GPGSV,3,3,10,23,41,059,37,25,06,173,*70
$GPRMC,001430.003,A,3907.3885,N,12102.4767,W,000.0,175.3,220403,015.4,E*71
$GPRMC,133747.83,A,6510.67,N,15055.56,W,000.0,175.3,220403,015.4,E*47
$GPGGA,001431.003,3907.3885,N,12102.4767,W,1,05,02.1,00545.5,M,-26.0,M,,*5D
$GPGGA,114122.78,3436.87,N,3534.68,W,1,05,02.1,00545.5,M,-26.0,M,,*58
$GPGGA,185729.54,2136.47,N,17449.57,W,1,05,02.1,00545.5,M,-26.0,M,,*69
$GPGGA,120557.916,5058.7456,N,00647.0515,E,2,06,1.7,108.5,M,47.6,M,1.5,0000*7A
$GPGSA,A,3,20,11,25,01,14,31,,,,,,,2.6,1.7,1.9*3B
$GPGSV,2,1,08,11,74,137,45,20,58,248,43,07,27,309,00,14,23,044,36*7A
$GPGSV,2,2,08,01,14,187,41,25,13,099,39,31,11,172,37,28,09,265,*71
$GPRMC,120557.916,A,5058.7456,N,00647.0515,E,0.00,82.33,220503,,*39
$GPRMC,121614.16,A,8309.80,N,0644.54,E,0.00,82.33,220503,,*34
$GPRMC,120754.18,A,1816.17,N,6943.90,E,0.00,82.33,220503,,*3A
$GPRMC,203619.29,A,8657.27,N,1208.80,E,0.00,82.33,220503,,*31
$GPGGA,120558.916,5058.7457,N,00647.0514,E,2,06,1.7,109.0,M,47.6,M,1.5,0000*71
$GPGGA,091839.50,7332.28,N,10417.48,E,2,06,1.7,109.0,M,47.6,M,1.5,0000*47
$GPGGA,084859.38,5624.67,N,10518.68,E,2,06,1.7,109.0,M,47.6,M,1.5,0000*4C
$GPGGA,044824.13,3559.83,N,2140.48,E,2,06,1.7,109.0,M,47.6,M,1.5,0000*7E
$GPGGA,230611.016,3907.3813,N,12102.4635,W,0,04,5.7,507.9,M,,,,0000*11
$GPGGA,144047.07,2554.90,N,4606.51,W,0,04,5.7,507.9,M,,,,0000*1B
$GPGGA,005309.86,1231.10,N,8649.86,W,0,04,5.7,507.9,M,,,,0000*1D
$GPGGA,134023.97,1158.92,N,17749.99,W,0,04,5.7,507.9,M,,,,0000*22
$GPGLL,3907.3813,N,12102.4635,W,230611.016,V*31
$GPGSA,A,1,27,08,28,13,,,,,,,,,21.7,5.7,20.9*38
$GPGSV,3,1,10,27,68,048,42,08,63,326,43,28,48,239,40,13,39,154,39*7E
$GPGSV,3,2,10,31,38,069,34,10,23,282,,03,12,041,,29,09,319,*7C
$GPGSV,3,3,10,23,07,325,,01,05,145,*7E
$GPRMC,230611.016,V,3907.3813,N,12102.4635,W,0.14,136.40,041002,,*04
$GPVTG,136.40,T,,M,0.14,N,0.3,K*66
$GPGGA,230612.015,3907.3815,N,12102.4634,W,0,04,5.7,508.3,M,,,,0000*13
$GPGGA,171537,3350.975,N,11823.991,W,2,07,1.1,-25.8,M,,M,1.8,,D*17
$GPGGA,114105.95,1751.26,N,15334.13,W,2,07,1.1,-25.8,M,,M,1.8,,D*31
$GPGLL,3350.975,N,11823.991,W,171537,A,D*50
$GPGLL,0834.99,N,17612.49,W,045258.17,A,D*77
$GPRMC,171537,A,3350.975,N,11823.991,W,0.0,096.5,060401,013.0,E,D*07
$GPRMC,232454.58,A,6643.35,N,17125.55,W,0.0,096.5,060401,013.0,E,D*23
$GPVTG,096.5,T,083.5,M,0.0,N,0.0,K,D*22
$GPGSA,A,2,04,09,07,24,02,05,26,,,,,,,1.1,*3C
$GPGSV,2,1,07,04,62,120,47,09,52,292,53,07,42,044,41,24,38,179,45*7B
$GPGSV,2,2,07,02,34,101,43,05,18,304,40,26,09,223,36,,,,*48
$PRAYA,6,1,122,0,0,2,36,1,1,,,,,*5A
$GPDTM,W84,,0.000000,N,0.000000,E,0.0,W84*6F
$GPGGA,171538,3350.974,N,11823.991,W,2,07,1.1,-25.8,M,,M,1.8,,D*19
$GPAPB,A,A,0.0,L,N,,,1.1,M,SIM002,1.1,M,,,*21
$GPGSA,A,3,01,02,03,04,,,,,,,,,2.0,2.0,2.0*34
$GPGSV,3,1,11,01,77,103,,13,53,215,,04,47,300,,20,47,090,*76
$GPGSV,3,2,11,19,24,158,,07,21,237,,25,16,039,,24,11,315,*73
$GPGSV,3,3,11,11,08,149,,27,00,179,,30,00,354,,,,,*46
$GPGLL,5100.2111,N,00500.0006,E,104715.203,A*37
$GPGGA,104715.20,5100.2111,N,00500.0006,E,1,04,2.0,-0047,M,,,,*39
$GPGGA,061844.25,2133.12,N,9410.84,E,1,04,2.0,-0047,M,,,,*01
$GPRMB,A,0.00,L,SIM001,SIM002,5102.6069,N,00500.0000,E,002.4,000.,021.7,V*0D
$GPRMC,104715.20,A,5100.2111,N,00500.0006,E,21.7,003.0,140801,01.,W*70
$GPRMC,001613.95,A,2527.71,N,6112.07,E,21.7,003.0,140801,01.,W*4E
$GPRMC,044414.96,A,2502.62,N,3606.30,E,21.7,003.0,140801,01.,W*4F
$GPAPB,A,A,0.0,L,N,,,1.1,M,SIM002,1.1,M,,,*21
$GPGSA,A,3,01,02,03,04,,,,,,,,,2.0,2.0,2.0*34
$GPGGA,184050.84,3907.3839,N,12102.4772,W,1,05,1.8,00543,M,,,,*33
$GPRMC,184050.84,A,3907.3839,N,12102.4772,W,00.0,000.0,080301,15,E*54
$GPRMC,204353.23,A,4403.84,N,17657.64,W,00.0,000.0,080301,15,E*57
$GPRMC,015302.01,A,2507.59,N,15715.49,W,00.0,000.0,080301,15,E*58
$GPGSA,A,3,24,07,09,26,05,,,,,,,,03.6,01.8,03.1*05
$PMGNST,02.12,3,T,534,05.0,+03327,00*40
$GPGLL,3907.3839,N,12102.4771,W,184051.812,A*2D
$GPGLL,6615.34,N,13427.30,W,021455.09,A*1B
$GPGLL,8025.74,N,6901.17,W,064216.71,A*23
$GPGGA,184051.81,3907.3839,N,12102.4771,W,1,05,1.8,00543,M,,,,*34
$GPGGA,110729.88,3958.26,N,2209.73,W,1,05,1.8,00543,M,,,,*0F
$GPGGA,230914.72,2847.09,N,7055.29,W,1,05,1.8,00543,M,,,,*09
$GPGGA,011135.76,7010.74,N,2056.74,W,1,05,1.8,00543,M,,,,*0C
$GPRMC,184051.81,A,3907.3839,N,12102.4771,W,00.0,000.0,080301,15,E*53
$GPGSA,A,3,24,07,09,26,05,,,,,,,,03.6,01.8,03.1*05
$GPGSV,3,1,08,07,57,045,43,09,48,303,48,04,44,144,,02,39,092,*7F
$GPGSV,3,2,08,24,18,178,44,26,17,230,41,05,13,292,43,08,01,147,*75
$GPGSV,3,3,08,,,,,,,,,,,,,,,,*71
$GPGLL,3907.3840,N,12102.4770,W,184052.812,A*21
$GPGLL,1722.72,N,2457.57,W,135921.57,A*2C
$GPGLL,1737.37,N,15841.99,W,122636.91,A*13
$GPRMC,152926,V,6027.8259,N,02225.6713,E,10.8,0.0,190803,5.9,E,S*22
$GPRMB,V,,,,,,,,,,,,A,S*0E
$GPGGA,152926,6027.8259,N,02225.6713,E,8,09,2.0,44.7,M,20.6,M,,*79
$GPGSA,A,3,07,08,09,11,18,23,26,28,29,,,,6.6,2.0,3.0*38
$GPGSV,3,1,09,07,29,138,44,08,22,099,42,09,30,273,44,11,07,057,35*75
$GPGSV,3,2,09,18,28,305,43,23,14,340,39,26,64,222,49,28,60,084,49*7E
$GPGSV,3,3,09,29,52,187,48*4E
$GPGLL,6027.8259,N,02225.6713,E,152926,V,S*48
$GPBOD,,T,,M,,*47
$PGRME,15.0,M,22.5,M,15.0,M*1B
$PGRMZ,147,f,3*19
$GPRTE,1,1,c,*37
$GPRMC,152928,V,6027.8319,N,02225.6713,E,10.8,0.0,190803,5.9,E,S*29
$GPRMC,023042,A,3907.3837,N,12102.4684,W,0.0,156.1,131102,15.3,E,A*36
$GPRMC,145841.56,A,6730.70,N,17702.33,W,0.0,156.1,131102,15.3,E,A*1B
$GPRMC,032348.55,A,4729.58,N,15609.89,W,0.0,156.1,131102,15.3,E,A*12
$GPRMC,042315.96,A,7854.53,N,8926.66,W,0.0,156.1,131102,15.3,E,A*20
$GPRMB,A,,,,,,,,,,,,A,A*0B
$GPGGA,023042,3907.3837,N,12102.4684,W,1,04,2.3,507.3,M,-24.1,M,,*75
$GPGGA,095142.05,5525.75,N,8749.97,W,1,04,2.3,507.3,M,-24.1,M,,*67
$GPGSA,A,3,04,05,,,09,,,24,,,,,2.8,2.3,1.0*36
$GPGSV,3,2,11,09,47,229,42,10,04,157,00,14,00,305,00,24,70,154,33*79
$GPGLL,3907.3837,N,12102.4684,W,023042,A,A*5E
$GPGLL,2847.48,N,14548.08,W,105312.22,A,A*7E
$GPGLL,4434.65,N,13600.29,W,103618.05,A,A*78
$GPBOD,,T,,M,,*47
$GPVTG,156.1,T,140.9,M,0.0,N,0.0,K*41
$PGRME,8.4,M,23.8,M,25.7,M*2B
$PGRMZ,1735,f*34
$PGRMM,WGS 84*06
$HCHDG,,,,15.3,E*30
$GPRTE,1,1,c,*37
$GPRMC,023044,A,3907.3840,N,12102.4692,W,0.0,156.1,131102,15.3,E,A*37
$GPRMC,090900.77,A,4057.74,N,5949.32,W,0.0,156.1,131102,15.3,E,A*26
$GPRMC,113014.23,A,7724.00,N,17202.03,W,0.0,156.1,131102,15.3,E,A*17
$GPRMC,002454,A,3553.5295,N,13938.6570,E,0.0,43.1,180700,7.1,W,A*3F
$GPRMC,103610.83,A,0416.49,N,13146.82,E,0.0,43.1,180700,7.1,W,A*12
$GPRMC,182415.38,A,8019.93,N,9819.61,E,0.0,43.1,180700,7.1,W,A*2D
$GPRMC,215722.06,A,8404.59,N,10437.99,E,0.0,43.1,180700,7.1,W,A*1B
$GPRMB,A,,,,,,,,,,,,A,A*0B
$GPGGA,002454,3553.5295,N,13938.6570,E,1,05,2.2,18.3,M,39.0,M,,*7F
$GPGSA,A,3,01,04,07,16,20,,,,,,,,3.6,2.2,2.7*35
$GPGSV,3,1,09,01,38,103,37,02,23,215,00,04,38,297,37,05,00,328,00*70
$GPGSV,3,2,09,07,77,299,47,11,07,087,00,16,74,041,47,20,38,044,43*73
$GPGSV,3,3,09,24,12,282,00*4D
$GPGLL,3553.5295,N,13938.6570,E,002454,A,A*4F
$GPGLL,3530.62,N,16537.17,E,005040.08,A,A*61
$GPGLL,1156.00,N,2906.52,E,004438.05,A,A*5E
$GPGLL,0151.44,N,2709.63,E,200659.22,A,A*5D
$GPBOD,,T,,M,,*47
$PGRME,8.6,M,9.6,M,12.9,M*15
$PGRMZ,51,f*30
$HCHDG,101.1,,,7.1,W*3C
$GPRTE,1,1,c,*37
$GPRMC,002456,A,3553.5295,N,13938.6570,E,0.0,43.1,180700,7.1,W,A*3D
$GPRMC,221653.74,A,3949.95,N,14411.95,E,0.0,43.1,180700,7.1,W,A*1D
$GPRMC,031423.16,A,2346.30,N,10437.93,E,0.0,43.1,180700,7.1,W,A*12
$GPRMC,001223.70,A,4445.02,N,17625.56,E,0.0,43.1,180700,7.1,W,A*1B
$GPRMC,183729,A,3907.356,N,12102.482,W,000.0,360.0,080301,015.5,E*6F
$GPRMC,131517.16,A,6750.44,N,7407.78,W,000.0,360.0,080301,015.5,E*7C
$GPRMC,154317.57,A,4503.26,N,15030.13,W,000.0,360.0,080301,015.5,E*40
$GPRMC,053541.71,A,2523.35,N,10234.54,W,000.0,360.0,080301,015.5,E*41
$GPRMB,A,,,,,,,,,,,,V*71
$GPGGA,183730,3907.356,N,12102.482,W,1,05,1.6,646.4,M,-24.1,M,,*75
$GPGGA,002946.89,0224.42,N,15256.59,W,1,05,1.6,646.4,M,-24.1,M,,*55
$GPGGA,114409.70,0321.81,N,12519.18,W,1,05,1.6,646.4,M,-24.1,M,,*56
$GPGGA,055102.94,5938.34,N,4351.51,W,1,05,1.6,646.4,M,-24.1,M,,*6F
$GPGSA,A,3,02,,,07,,09,24,26,,,,,1.6,1.6,1.0*3D
$GPGSV,2,1,08,02,43,088,38,04,42,145,00,05,11,291,00,07,60,043,35*71
$GPGSV,2,2,08,08,02,145,00,09,46,303,47,24,16,178,32,26,18,231,43*77
$PGRME,22.0,M,52.9,M,51.0,M*14
$GPGLL,3907.360,N,12102.481,W,183730,A*33
$GPGLL,0521.79,N,14048.58,W,014410.76,A*1B
$GPGLL,8853.67,N,8617.37,W,052808.70,A*2D
$GPGLL,6315.42,N,9845.79,W,001252.15,A*2F
$PGRMZ,2062,f,3*2D
$PGRMM,WGS 84*06
$GPBOD,,T,,M,,*47
$GPRTE,1,1,c,0*07
$GPRMC,183731,A,3907.482,N,12102.436,W,000.0,360.0,080301,015.5,E*67
$GPRMC,192148.76,A,4859.95,N,9024.56,W,000.0,360.0,080301,015.5,E*72
$GPRMC,202930.60,A,5617.53,N,11805.60,W,000.0,360.0,080301,015.5,E*40
$GPRMC,085107.21,A,7200.01,N,17903.76,W,000.0,360.0,080301,015.5,E*45
$GPRMB,A,,,,,,,,,,,,V*71
$GPRMC,162254.00,A,3723.02837,N,12159.39853,W,0.820,188.36,110706,,,A*74
$GPVTG,188.36,T,,M,0.820,N,1.519,K,A*3F
$GPGGA,162254.00,3723.02837,N,12159.39853,W,1,03,2.36,525.6,M,-25.6,M,,*65
$GPGGA,043053.94,7840.71,N,3948.81,W,1,03,2.36,525.6,M,-25.6,M,,*5C
$GPGGA,130442.93,8745.91,N,0305.39,W,1,03,2.36,525.6,M,-25.6,M,,*52
$GPGSA,A,2,25,01,22,,,,,,,,,,2.56,2.36,1.00*02
$GPGSV,4,1,14,25,15,175,30,14,80,041,,19,38,259,14,01,52,223,18*76
$GPGSV,4,2,14,18,16,079,,11,19,312,,14,80,041,,21,04,135,25*7D
$GPGSV,4,3,14,15,27,134,18,03,25,222,,22,51,057,16,09,07,036,*79
$GPGSV,4,4,14,07,01,181,,15,25,135,*76
$GPGLL,3723.02837,N,12159.39853,W,162254.00,A,A*7C
$GPGLL,5209.44,N,4612.51,W,213910.98,A,A*49
$GPGLL,3019.45,N,1847.16,W,053514.83,A,A*41
$GPGLL,8937.34,N,16603.29,W,113445.44,A,A*76
$GPZDA,162254.00,11,07,2006,00,00*63
$GPBWC,081837,,,,,,T,,M,,N,*13
$GPGLL,4916.45,N,12311.12,W,225444,A*31
$GPGSA,A,3,,,,,,16,18,,22,24,,,3.6,2.1,2.2*3C
$$GPGSA,A,3,19,28,14,18,27,22,31,39,,,,,1.7,1.0,1.3*35*3C
$GPGSV,3,1,11,03,03,111,00,04,15,270,00,06,01,010,00,13,06,292,00*74
$GPGSV,3,2,11,14,25,170,00,16,57,208,39,18,67,296,40,19,40,246,00*74
$GPGSV,3,3,11,22,42,067,42,24,14,311,43,27,05,244,00,,,,*4D
$$GPRMB,A,0.66,L,003,004,4917.24,N,12309.57,W,001.3,052.5,000.5,V*0B*5C
$GPRMC,081836,A,3751.65,S,14507.36,E,000.0,360.0,130998,011.3,E*62
$GPRMC,102909.72,A,8153.56,S,7010.92,E,000.0,360.0,130998,011.3,E*7E
$GPRMC,004708.05,A,1028.56,S,9114.68,E,000.0,360.0,130998,011.3,E*7C
$GPRMC,225446,A,4916.45,N,12311.12,W,000.5,054.7,191194,020.3,E*68
$GPRMC,022141.13,A,0349.34,N,5200.54,W,000.5,054.7,191194,020.3,E*74
$GPRMC,220516,A,5133.82,N,00042.24,W,173.8,231.8,130694,004.2,W*70
$GPVTG,360.0,T,348.7,M,000.0,N,000.0,K*43
$GPVTG,054.7,T,034.4,M,005.5,N,010.2,K*48
$GPWPL,4917.16,N,12310.64,W,003*65
$GPWPL,5128.62,N,00027.58,W,EGLL*59
$GPXTE,A,A,4.07,L,N*6D
$$PGRME,15.0,M,45.0,M,25.0,M*22*12
$PGRMZ,246,f,3*1B
$PGRMZ,93,f,3*21
$PGRMZ,201,f,3*18
$PSLIB,,,J*22
$PSLIB,,,K*23
